City_ID,City,Lat,Lng,Max Temp,Humidity,Cloudiness,Wind Speed,Country,Date
0,edinburgh of the seven seas,-37.0676,-12.3116,54.77,69,88,11.23,SH,1699561666
1,papatowai,-46.5619,169.4708,47.82,56,86,0.76,NZ,1699561438
2,newman,37.3138,-121.0208,67.05,36,100,3.0,US,1699561069
3,pontes e lacerda,-15.2261,-59.3353,83.55,63,100,2.89,BR,1699561671
4,bredasdorp,-34.5322,20.0403,59.05,79,0,5.61,ZA,1699561446
5,waitangi,-43.9535,-176.5597,47.82,77,99,5.01,NZ,1699561466
6,bilibino,68.0546,166.4372,-7.65,99,100,1.86,RU,1699561565
7,invercargill,-46.4,168.35,45.39,63,15,3.8,NZ,1699561428
8,maitum,6.0392,124.4986,77.97,83,39,4.0,PH,1699561679
9,itoman,26.1247,127.6694,79.57,92,20,11.5,JP,1699561680
10,longyearbyen,78.2186,15.6401,26.44,74,75,12.66,SJ,1699561683
11,la ronge,55.1001,-105.2842,32.25,86,100,1.14,CA,1699561685
12,yellowknife,62.456,-114.3525,31.41,97,100,19.57,CA,1699561246
13,wynyard,-41.0,145.7167,52.2,93,65,4.21,AU,1699561688
14,dryden,49.7833,-92.7503,34.09,86,75,8.05,CA,1699561275
15,chonchi,-42.6128,-73.8092,58.21,52,98,2.01,CL,1699561521
16,grytviken,-54.2811,-36.5092,35.17,97,97,4.59,GS,1699561471
17,adamstown,-25.066,-130.1015,72.66,87,100,16.89,PN,1699561453
18,port-aux-francais,-49.35,70.2167,41.59,95,100,26.51,TF,1699561467
19,argo,37.6333,22.7333,61.79,78,100,3.65,GR,1699561701
20,bandarbeyla,9.4942,50.8122,79.72,81,100,16.17,SO,1699561703
21,tamiahua,21.2667,-97.45,80.8,80,80,13.33,MX,1699561705
22,mar del plata,-38.0023,-57.5575,66.83,70,0,18.01,AR,1699561642
23,guerrero negro,27.9769,-114.0611,77.14,35,0,5.19,MX,1699561679
24,port augusta,-32.5,137.7667,73.53,31,6,3.76,AU,1699561711
25,jamestown,42.097,-79.2353,48.02,79,100,3.0,US,1699561613
26,abu al matamir,30.9102,30.1744,66.9,81,100,5.5,EG,1699561714
27,bam,29.106,58.357,65.28,37,0,3.36,IR,1699561717
28,constantia,44.1833,28.65,45.7,47,0,2.91,RO,1699561516
29,hermanus,-34.4187,19.2345,62.06,71,0,9.91,ZA,1699561720
30,kargasok,59.0556,80.8572,19.96,92,20,11.99,RU,1699561722
31,bethel,41.3712,-73.414,57.02,75,0,0.0,US,1699561724
32,kodiak,57.79,-152.4072,33.31,55,0,8.05,US,1699561729
33,dudinka,69.4058,86.1778,24.62,90,100,28.01,RU,1699561731
34,el calafate,-50.3408,-72.2768,52.0,48,3,12.21,AR,1699561206
35,saipan,15.1355,145.701,81.3,83,20,13.8,MP,1699561735
36,hawaiian paradise park,19.5933,-154.9731,81.88,81,100,4.61,US,1699561739
37,petropavlovsk-kamchatsky,53.0452,158.6483,25.45,73,0,21.0,RU,1699561740
38,iskateley,67.6803,53.1512,33.03,100,100,8.99,RU,1699561742
39,pangai,-19.8,-174.35,78.91,78,100,9.22,TO,1699561744
40,blackmans bay,-43.0167,147.3167,57.33,96,30,1.01,AU,1699561447
41,antsiranana,-12.2787,49.2917,76.77,87,8,8.23,MG,1699561748
42,georgetown,5.4112,100.3354,78.73,94,20,4.61,MY,1699561504
43,santiago de cao,-7.9589,-79.2392,69.93,78,0,10.36,PE,1699561223
44,stanley,54.868,-1.6985,43.79,91,99,1.95,GB,1699561559
45,saint-pierre,-21.3393,55.4781,74.88,73,0,5.75,RE,1699561179
46,ust-nera,64.5667,143.2,-22.94,98,84,3.22,RU,1699561517
47,whitehorse,60.7161,-135.0538,41.77,70,75,11.5,CA,1699561310
48,port hedland,-20.3167,118.5667,77.05,94,0,3.44,AU,1699561759
49,o rosal,41.9354,-8.8368,57.22,81,100,9.08,ES,1699561761
50,alofi,-19.0595,-169.9187,76.89,94,97,1.14,NU,1699561217
51,enewetak,11.3474,162.3373,82.99,76,100,19.15,MH,1699561765
52,wailua homesteads,22.0669,-159.378,82.83,76,75,17.27,US,1699561767
53,margaret river,-33.95,115.0667,56.03,66,100,9.44,AU,1699561440
54,tiksi,71.6872,128.8694,3.18,88,100,12.57,RU,1699561771
55,bodo,67.28,14.405,33.78,74,0,11.5,NO,1699561772
56,namibe,-15.1961,12.1522,68.94,79,50,5.59,AO,1699561774
57,olonkinbyen,70.9221,-8.7187,27.7,67,92,2.48,SJ,1699561776
58,amlapura,-8.45,115.6167,77.59,85,100,6.06,ID,1699561779
59,westport,41.1415,-73.3579,60.08,73,75,8.05,US,1699561780
60,guanhaes,-18.775,-42.9325,80.55,40,0,2.08,BR,1699561608
61,kargil,34.5667,76.1,31.82,67,100,5.53,IN,1699561784
62,albany,42.6001,-73.9662,51.37,79,100,1.01,US,1699561449
63,ribeira grande,38.5167,-28.7,69.78,94,75,21.0,PT,1699561787
64,rayevskiy,54.0658,54.9468,43.25,88,100,14.05,RU,1699561789
65,iqaluit,63.7506,-68.5145,29.93,74,75,15.01,CA,1699561792
66,puerto baquerizo moreno,-0.9,-89.6,76.19,94,75,11.5,EC,1699561794
67,altay,47.8667,88.1167,24.73,71,0,6.6,CN,1699561796
68,hasaki,35.7333,140.8333,55.8,67,42,10.07,JP,1699561798
69,udachny,66.4167,112.4,10.45,84,100,3.24,RU,1699561800
70,makurazaki,31.2667,130.3167,66.43,89,98,12.12,JP,1699561802
71,manavalakurichi,8.1333,77.3,78.91,84,77,4.29,IN,1699561805
72,umm kaddadah,13.6017,26.6876,83.23,22,24,11.9,SD,1699561808
73,luderitz,-26.6481,15.1594,61.88,79,1,4.36,NA,1699561811
74,viedma,-40.8135,-62.9967,69.4,33,0,15.59,AR,1699561813
75,hithadhoo,-0.6,73.0833,80.78,80,82,6.64,MV,1699561815
76,ushuaia,-54.8,-68.3,51.46,36,75,18.41,AR,1699561816
77,hirara,24.8,125.2833,76.86,100,100,3.44,JP,1699561818
78,rio grande,-32.035,-52.0986,77.11,70,0,11.25,BR,1699561820
79,zavodoukovsk,56.5042,66.5515,33.85,97,100,5.5,RU,1699561822
80,nuuk,64.1835,-51.7216,27.21,68,75,5.75,GL,1699561824
81,thompson,55.7435,-97.8558,21.36,73,75,9.22,CA,1699561601
82,san patricio,28.017,-97.5169,85.86,69,100,7.9,US,1699561828
83,kayangel,8.0823,134.7173,84.2,73,38,12.93,PW,1699561830
84,flying fish cove,-10.4217,105.6791,78.48,88,75,5.75,CX,1699561832
85,la passe,45.5549,-0.8967,53.83,76,100,26.93,FR,1699561834
86,tazovsky,67.4667,78.7,24.64,87,100,19.04,RU,1699561836
87,west island,-12.1568,96.8225,78.78,89,40,11.5,CC,1699561561
88,christchurch,-43.5333,172.6333,55.42,65,100,5.75,NZ,1699561714
89,parakou,9.3372,2.6303,84.31,49,95,5.93,BJ,1699561842
90,samaniego,1.3385,-77.5957,78.51,86,100,3.83,CO,1699561844
91,west bay,19.3667,-81.4167,87.87,78,20,12.66,KY,1699561846
92,jining,35.405,116.5814,39.47,39,3,8.9,CN,1699561848
93,jiangzi,28.95,89.6333,22.64,70,1,5.91,CN,1699561850
94,kidal,18.4411,1.4078,83.82,11,1,6.06,ML,1699561577
95,jiazi,22.8779,116.067,74.82,82,91,6.15,CN,1699561853
96,haikou,20.0458,110.3417,77.13,100,75,2.24,CN,1699561855
97,punta arenas,-53.15,-70.9167,53.62,37,75,23.02,CL,1699561825
98,westerland,54.9079,8.3033,48.22,87,100,13.8,DE,1699561859
99,morehead city,34.7229,-76.726,78.03,74,0,17.27,US,1699561755
100,barma,8.35,-11.3333,73.38,98,83,1.12,SL,1699561863
101,grand gaube,-20.0064,57.6608,77.38,74,84,1.01,MU,1699561865
102,taroudant,30.4703,-8.877,66.63,40,65,0.78,MA,1699561868
103,vernon,50.2581,-119.2691,46.62,87,100,3.44,CA,1699561818
104,sao joao da barra,-21.6403,-41.0511,82.49,77,0,17.13,BR,1699561530
105,rehoboth,-23.3167,17.0833,75.88,19,0,7.96,NA,1699561873
106,melfort,52.8667,-104.6177,30.33,86,100,4.61,CA,1699561875
107,port isabel,26.0734,-97.2086,87.89,76,100,17.27,US,1699561878
108,las vegas,36.175,-115.1372,67.12,17,0,28.01,US,1699561270
109,ciudad lazaro cardenas,17.9583,-102.2,84.87,73,9,8.3,MX,1699561883
110,caleta de carquin,-11.0925,-77.6267,70.77,73,13,11.01,PE,1699561884
111,zhangye,38.9342,100.4517,33.31,38,30,5.59,CN,1699561886
112,puerto ayora,-0.7393,-90.3518,84.16,97,82,11.99,EC,1699561888
113,dukhan,25.4297,50.7858,78.58,69,0,6.78,QA,1699561891
114,grand falls-windsor,48.9332,-55.6649,35.51,92,100,7.0,CA,1699561894
115,yerofey pavlovich,53.9667,121.9667,1.83,78,28,3.62,RU,1699561895
116,nova russas,-4.7067,-40.5631,93.13,24,7,7.85,BR,1699561897
117,port alfred,-33.5906,26.891,58.17,94,2,6.35,ZA,1699561899
118,acarau,-2.8856,-40.12,81.28,74,94,20.96,BR,1699561270
119,saint-francois,46.4154,3.9054,51.24,78,75,8.05,FR,1699561902
120,nouadhibou,20.931,-17.0347,67.98,77,26,14.97,MR,1699561905
121,nyrob,60.733,56.7202,37.13,97,100,5.77,RU,1699561907
122,hammerfest,70.6634,23.6821,32.45,80,40,9.22,NO,1699561911
123,uttar char fasson,22.2332,90.7132,72.72,70,4,8.43,BD,1699561913
124,isafjordur,66.0755,-23.124,36.63,74,95,7.02,IS,1699561536
125,mugia,43.1041,-9.2179,56.91,75,100,17.31,ES,1699561917
126,avarua,-21.2078,-159.775,78.85,78,96,10.36,CK,1699561505
127,gazli,40.1333,63.45,51.71,50,85,10.38,UZ,1699561921
128,puerto natales,-51.7236,-72.4875,55.85,38,20,34.52,CL,1699561926
129,porto novo,6.4965,2.6036,82.22,82,87,7.72,BJ,1699561739
130,nar'yan-mar,67.6713,53.087,33.12,100,100,8.99,RU,1699561930
131,pacora,9.0833,-79.2833,86.2,79,40,13.8,PA,1699561931
132,ola,59.5833,151.2833,-0.94,85,5,10.33,RU,1699561932
133,ocean city,39.2776,-74.5746,73.58,68,17,7.9,US,1699561933
134,birao,10.2849,22.7882,79.84,60,89,7.18,CF,1699561935
135,laojunmiao,39.8333,97.7333,32.13,37,100,0.58,CN,1699561937
136,aasiaat,68.7098,-52.8699,17.47,93,98,11.59,GL,1699561940
137,dwarka,22.2394,68.9678,80.71,68,0,7.4,IN,1699561942
138,dakhla,23.6848,-15.958,68.02,83,0,21.85,EH,1699561829
139,hami,42.8,93.45,35.71,28,0,1.57,CN,1699561944
140,garachico,28.7781,-17.7646,68.11,73,75,14.97,ES,1699561946
141,puerto armuelles,8.2833,-82.8667,87.78,84,58,7.0,PA,1699561948
142,cabras,39.93,8.5314,61.36,85,100,13.42,IT,1699561949
143,vilyuchinsk,52.9306,158.4028,26.92,83,84,5.03,RU,1699561952
144,vadso,70.0744,29.7487,28.56,86,100,14.97,NO,1699561954
145,livramento do brumado,-13.6431,-41.8406,85.15,37,80,6.17,BR,1699561956
146,derzhavinsk,51.1,66.3167,40.78,76,100,11.7,KZ,1699561958
147,broken hill,-31.95,141.4333,79.52,34,4,12.8,AU,1699561961
148,jinchang,38.4953,102.1739,30.38,43,65,2.77,CN,1699561966
149,susuman,62.7833,148.1667,-23.84,99,89,0.87,RU,1699561970
150,egilsstadir,65.2653,-14.3948,35.51,87,75,13.8,IS,1699561974
151,sinabang,2.4803,96.3801,78.1,85,100,3.4,ID,1699561976
152,toliara,-23.35,43.6667,73.53,67,38,8.23,MG,1699561980
153,tosontsengel,48.7567,98.2839,-3.17,97,87,3.69,MN,1699561984
154,floro,61.5996,5.0328,42.76,65,0,10.36,NO,1699561988
155,talnakh,69.4865,88.3972,24.21,90,100,18.28,RU,1699561992
156,puerto colombia,10.9878,-74.9547,87.89,79,53,14.58,CO,1699561995
157,balao,-2.9167,-79.8167,82.35,68,88,7.94,EC,1699561998
158,bubaque,11.2833,-15.8333,84.15,55,100,8.48,GW,1699562001
159,sao francisco do sul,-26.2433,-48.6381,70.05,94,100,4.14,BR,1699562005
160,taroa,8.7058,171.2275,77.54,96,100,12.24,MH,1699562008
161,shenjiamen,29.9576,122.298,65.7,90,100,11.25,CN,1699562014
162,lorengau,-2.0226,147.2712,80.56,84,100,12.64,PG,1699562019
163,kununurra,-15.7667,128.7333,82.38,65,94,4.61,AU,1699562020
164,bouna,9.2667,-3.0,76.41,82,100,4.36,CI,1699562021
165,rosario del tala,-32.3029,-59.1455,76.71,44,0,11.12,AR,1699562023
166,geraldton,-28.7667,114.6,64.81,63,100,12.66,AU,1699562025
167,bereeda,11.8704,51.0579,79.63,72,10,6.91,SO,1699562027
168,college,64.8569,-147.8028,35.55,89,100,11.5,US,1699561919
169,kalmunai,7.4167,81.8167,78.28,84,97,4.29,LK,1699562031
170,uturoa,-16.7333,-151.4333,79.56,81,3,14.27,PF,1699562033
171,shakawe,-18.3667,21.85,88.36,20,90,6.2,BW,1699562034
172,mardakan,40.4922,50.1389,64.35,68,0,18.41,AZ,1699562036
173,utrik,11.2278,169.8474,81.86,74,95,23.02,MH,1699562038
174,waddan,29.1614,16.139,71.38,33,58,7.14,LY,1699562039
175,arraial do cabo,-22.9661,-42.0278,80.46,65,0,11.5,BR,1699562041
176,coquimbo,-29.9533,-71.3436,64.13,77,100,10.36,CL,1699562043
177,naze,28.3667,129.4833,74.32,84,97,10.02,JP,1699562045
178,dunedin,-45.8742,170.5036,48.54,56,100,3.06,NZ,1699561849
179,lihue,21.9789,-159.3672,83.44,70,75,17.27,US,1699562049
180,lima,-12.0432,-77.0282,68.25,68,100,12.66,PE,1699561811
181,mount pearl,47.5166,-52.7813,38.32,96,100,24.16,CA,1699562052
182,kralendijk,12.15,-68.2667,85.98,79,40,19.57,BQ,1699562054
183,belyy yar,53.6039,91.3903,-5.91,92,40,0.0,RU,1699562056
184,takoradi,4.8845,-1.7554,79.32,85,44,8.1,GH,1699562012
185,qaqortoq,60.7167,-46.0333,26.47,89,44,4.68,GL,1699561469
186,pico truncado,-46.7949,-67.9573,67.41,18,0,11.07,AR,1699562060
187,campo belo,-20.8972,-45.2772,80.6,32,1,1.97,BR,1699562061
188,labrador city,52.9463,-66.9114,21.11,86,100,8.05,CA,1699561810
189,tokar,18.4254,37.729,83.82,57,64,14.85,SD,1699562066
190,vung tau,10.346,107.0843,80.92,83,19,10.85,VN,1699562067
191,san antonio de pale,-1.4014,5.6325,78.44,80,27,13.91,GQ,1699562071
192,zhuanghe,39.7008,122.9911,29.46,44,0,13.96,CN,1699562072
193,villemandeur,47.987,2.718,47.14,94,100,15.46,FR,1699562074
194,kavaratti,10.5669,72.642,82.83,75,98,6.46,IN,1699562077
195,bizerte,37.2744,9.8739,62.6,82,75,2.3,TN,1699562079
196,ancud,-41.8697,-73.8203,55.2,64,1,6.4,CL,1699562081
197,kailua-kona,19.6406,-155.9956,84.51,70,40,6.91,US,1699562083
198,aswan,24.0934,32.907,82.29,40,0,6.96,EG,1699561937
199,carqueiranne,43.0953,6.073,52.5,86,0,3.44,FR,1699562086
200,ilulissat,69.2167,-51.1,26.62,80,75,11.5,GL,1699562089
201,karratha,-20.7377,116.8463,82.44,28,0,13.04,AU,1699561799
202,greymouth,-42.4667,171.2,56.41,57,6,3.85,NZ,1699562092
203,port douglas,-16.4833,145.4667,76.06,71,89,9.4,AU,1699561893
204,klyuchi,52.2667,79.1667,40.3,94,90,7.74,RU,1699562096
205,almansa,38.8692,-1.0971,49.78,83,91,10.63,ES,1699562098
206,touros,-5.1989,-35.4608,79.47,76,29,13.8,BR,1699562100
207,leninskoye,41.7589,69.3864,44.2,68,9,3.04,KZ,1699562102
208,fale old settlement,-9.3852,-171.2468,83.57,78,81,14.09,TK,1699562103
209,poronaysk,49.2167,143.1167,32.13,99,100,9.26,RU,1699562105
210,lompoc,34.6391,-120.4579,79.79,33,0,17.27,US,1699562061
211,bel ombre,-4.6167,55.4167,82.24,78,20,3.44,SC,1699562108
212,queenstown,-31.8976,26.8753,55.26,90,0,3.24,ZA,1699561822
213,moultonborough,43.7548,-71.3967,35.08,95,100,0.29,US,1699562111
214,fort bragg,35.139,-79.006,82.98,45,0,9.22,US,1699562113
215,happy valley-goose bay,53.3168,-60.3315,30.51,64,100,12.66,CA,1699562115
216,baruun-urt,46.6806,113.2792,-6.11,91,5,5.59,MN,1699562117
217,papao,-17.75,-149.55,85.68,84,15,14.85,PF,1699562119
218,humberto de campos,-2.5983,-43.4611,79.2,81,100,9.15,BR,1699562120
219,lazaro cardenas,17.9583,-102.2,84.87,73,9,8.3,MX,1699562121
220,englewood,39.6478,-104.9878,50.7,40,20,6.91,US,1699561848
221,cambria,35.5641,-121.0808,70.41,46,49,3.0,US,1699562124
222,meulaboh,4.1363,96.1285,75.94,90,100,2.93,ID,1699562126
223,arkhangel'sk,64.5401,40.5433,22.12,97,100,1.74,RU,1699562128
224,badger,64.8,-147.5333,35.47,93,75,11.5,US,1699562130
225,margate,51.3813,1.3862,49.69,83,54,5.01,GB,1699562106
226,cochin,9.9399,76.2602,75.18,91,100,3.38,IN,1699562135
227,howrah,22.5892,88.3103,71.6,88,0,0.0,IN,1699562137
228,wedgefield,28.4878,-81.0773,85.19,54,17,7.87,US,1699562138
229,varna,43.2167,27.9167,45.28,93,0,3.44,BG,1699561874
230,chui,-33.6971,-53.4616,59.56,63,0,11.18,UY,1699562141
231,villa de soto,-30.8552,-64.9995,80.4,16,1,19.01,AR,1699562143
232,polyarnyy,69.1989,33.4478,22.35,89,91,13.62,RU,1699562144
233,vilyuysk,63.7553,121.6247,0.73,96,100,5.17,RU,1699562146
234,as sulayyil,20.4607,45.5779,71.85,33,82,8.12,SA,1699562148
235,carmen,18.6333,-91.8333,86.04,54,0,12.66,MX,1699562149
236,sinop,41.7711,34.8709,48.97,92,99,3.85,TR,1699562151
237,fada,9.5667,8.3,73.06,64,66,1.36,NG,1699562153
238,oxapampa,-10.5775,-75.4017,61.59,96,98,1.28,PE,1699562155
239,palekh,56.8028,41.8572,37.24,94,100,6.49,RU,1699562159
240,ta`u,-14.2336,-169.5144,80.65,83,100,9.57,AS,1699562162
241,remire-montjoly,4.9167,-52.2667,86.04,70,0,11.5,GF,1699562163
242,kattivakkam,13.2167,80.3167,82.08,83,100,11.68,IN,1699562165
243,fortaleza,-3.7227,-38.5247,85.06,63,0,19.57,BR,1699562096
244,tarko-sale,64.9225,77.785,20.73,88,96,20.29,RU,1699561936
245,new norfolk,-42.7826,147.0587,58.5,74,42,2.77,AU,1699562171
246,sao vicente,-23.9631,-46.3919,93.38,43,0,4.61,BR,1699562174
247,jwaneng,-24.6004,24.7303,76.28,31,3,7.74,BW,1699562176
248,el obeid,13.1842,30.2167,85.37,33,99,3.22,SD,1699562178
249,ilebo,-4.3167,20.5833,70.84,99,100,2.01,CD,1699562181
250,hamilton,39.1834,-84.5333,63.25,45,0,13.8,US,1699561930
251,nieuw nickerie,5.95,-56.9833,82.78,74,17,12.37,SR,1699562184
252,paraiba do sul,-22.1619,-43.2928,77.49,67,2,3.96,BR,1699562186
253,tual,-5.6667,132.75,81.27,80,42,7.11,ID,1699562187
254,towcester,52.1336,-0.9906,43.36,88,72,17.43,GB,1699562189
255,shaowu,27.3409,117.4831,67.48,99,100,1.63,CN,1699562190
256,buka,40.8108,69.1986,48.99,57,22,3.74,UZ,1699562192
257,cabo san lucas,22.8909,-109.9124,86.5,65,20,1.99,MX,1699562168
258,ghadamis,30.1337,9.5007,75.99,19,100,11.74,LY,1699562196
259,oruro,-17.9833,-67.15,59.49,44,40,17.27,BO,1699562198
260,santa marta,11.2408,-74.199,93.25,71,40,10.0,CO,1699562201
261,fort st. john,56.2499,-120.8529,33.69,75,75,8.05,CA,1699562202
262,kapuskasing,49.4169,-82.4331,30.29,100,100,6.91,CA,1699562204
263,hood river,45.7054,-121.5215,50.9,83,40,0.0,US,1699562206
264,boa vista,2.8197,-60.6733,94.98,46,40,10.36,BR,1699562208
265,east london,-33.0153,27.9116,62.98,84,2,6.17,ZA,1699562209
266,gustavsberg,59.3268,18.3898,46.29,96,100,15.77,SE,1699562211
267,imbituba,-28.24,-48.6703,71.91,96,100,7.27,BR,1699562213
268,huarmey,-10.0681,-78.1522,71.01,74,43,9.91,PE,1699562214
269,gebeit,21.0667,36.3167,75.31,51,16,5.32,SD,1699562216
270,bichura,50.5881,107.6022,4.86,89,76,3.76,RU,1699562218
271,partapur,23.6,74.1667,75.69,40,6,3.06,IN,1699562220
272,masterton,-40.9597,175.6575,55.89,60,96,6.35,NZ,1699562223
273,mohr,54.3528,9.7167,45.14,93,75,8.05,DE,1699562225
274,vorgashor,67.5833,63.95,30.02,95,100,12.41,RU,1699562227
275,villamontes,-21.25,-63.5,96.24,38,39,5.75,BO,1699562229
276,tacuarembo,-31.7333,-55.9833,70.63,62,0,12.3,UY,1699562232
277,weno,7.4515,151.8468,78.75,100,100,12.66,FM,1699562234
278,santo antonio dos olivais,40.2082,-8.401,57.15,88,100,1.95,PT,1699562235
279,camacupa,-12.0167,17.4833,63.97,93,95,4.5,AO,1699562237
280,plesetsk,62.708,40.2916,30.15,78,100,1.03,RU,1699562238
281,port elizabeth,-33.918,25.5701,58.32,85,0,0.0,ZA,1699562240
282,novorossiysk,44.7239,37.7708,53.26,75,6,4.45,RU,1699562242
283,kamaishi,39.2667,141.8833,56.79,84,99,10.42,JP,1699562244
284,port mathurin,-19.6833,63.4167,76.53,78,7,13.06,MU,1699562245
285,kristiansund,63.1115,7.732,41.65,65,0,4.61,NO,1699562247
286,shache,38.4167,77.2406,46.71,30,98,5.37,CN,1699562248
287,charlottetown,46.2352,-63.1267,41.56,94,100,12.66,CA,1699562250
288,tura,25.5198,90.2201,63.05,70,0,3.6,IN,1699562252
289,choele choel,-39.2667,-65.6833,84.85,15,29,13.65,AR,1699561959
290,chos malal,-37.3781,-70.2709,80.11,12,32,8.72,AR,1699562255
291,nguigmi,14.2495,13.1092,83.48,20,83,12.12,NE,1699562257
292,nejo,9.5,35.5,57.7,86,52,1.66,ET,1699562259
293,north bay,46.3168,-79.4663,42.12,95,100,12.66,CA,1699562233
294,atafu village,-8.5421,-172.5159,83.75,74,100,13.85,TK,1699562261
295,praia da vitoria,38.7333,-27.0667,70.05,88,75,19.53,PT,1699562264
296,ungsang-nodongjagu,42.3578,130.4622,28.2,51,0,21.43,KP,1699562265
297,khed,17.7167,73.3833,75.96,89,90,2.15,IN,1699562267
298,ruangwa,-10.0667,38.9333,76.03,82,65,7.09,TZ,1699562268
299,opuwo,-18.0607,13.84,74.77,27,10,7.56,NA,1699562269
300,yarmouth,41.7057,-70.2286,50.02,93,100,5.75,US,1699562031
301,castillos,-34.1667,-53.8333,59.02,59,0,10.18,UY,1699562273
302,benguela,-12.5763,13.4055,78.44,72,88,7.85,AO,1699562275
303,biltine,14.5333,20.9167,81.16,15,42,8.05,TD,1699562277
304,funafuti,-8.5243,179.1942,84.2,94,75,0.0,TV,1699562278
305,akureyri,65.6835,-18.0878,35.53,75,75,4.61,IS,1699562280
306,turkmenbasy,40.0222,52.9552,65.17,29,0,11.5,TM,1699562281
307,rice lake,45.5061,-91.7382,47.88,48,0,20.71,US,1699562131
308,isiro,2.7739,27.616,67.55,97,78,2.42,CD,1699562284
309,axim,4.8699,-2.2405,79.16,85,29,7.4,GH,1699562286
310,kassiri,8.9372,-13.1244,79.75,84,73,6.33,SL,1699562288
311,mili,6.0815,171.735,80.89,87,100,15.28,MH,1699562290
312,mirny,62.5353,113.9611,6.24,77,100,11.01,RU,1699562291
313,zhanaozen,43.3,52.8,54.43,48,100,20.58,KZ,1699562293
314,'ain benian,36.8028,2.9219,59.05,65,100,10.89,DZ,1699562295
315,freetown,8.484,-13.2299,79.7,83,100,7.02,SL,1699562296
316,hermosillo,29.0667,-110.9667,84.29,23,0,5.01,MX,1699562181
317,brisas de zicatela,15.8369,-97.0419,86.52,58,20,4.61,MX,1699562299
318,quilmes,-34.7242,-58.2527,73.35,31,54,15.17,AR,1699562302
319,nikolayevsk-on-amure,53.1406,140.73,17.24,96,100,3.42,RU,1699562304
320,frontera,26.9333,-101.45,74.95,64,75,8.05,MX,1699562306
321,bend,44.0582,-121.3153,48.34,46,0,9.22,US,1699562258
322,fort mcmurray,56.7268,-111.381,26.19,93,100,6.91,CA,1699562309
323,mandiana,10.6333,-8.6833,81.97,47,100,1.19,GN,1699562311
324,changzhi,35.2089,111.7386,41.36,54,100,6.6,CN,1699562312
325,shangmei,27.7428,111.2956,60.78,89,100,5.32,CN,1699562313
326,kasungu,-13.0333,33.4833,75.07,58,50,9.4,MW,1699562315
327,hartselle,34.4434,-86.9353,75.72,84,100,3.04,US,1699562316
328,st. john's,47.5649,-52.7093,38.97,96,100,24.16,CA,1699562237
329,long beach,33.767,-118.1892,82.56,18,0,5.75,US,1699562151
330,katsina,12.9894,7.6006,82.29,32,93,0.0,NG,1699562324
331,new ulm,44.3125,-94.4605,52.43,40,40,21.85,US,1699562326
332,codrington,-38.2667,141.9667,57.18,76,16,3.83,AU,1699562327
333,holualoa,19.6228,-155.9522,82.54,70,40,6.91,US,1699562329
334,plano,33.0198,-96.6989,55.92,90,100,16.11,US,1699562330
335,kingston,17.997,-76.7936,87.24,83,40,24.16,JM,1699562139
336,al kharijah,25.4514,30.5464,76.06,42,0,10.51,EG,1699562335
337,saint-joseph,-21.3667,55.6167,73.78,79,57,4.74,RE,1699562338
338,nova sintra,14.8667,-24.7167,72.88,66,93,10.22,CV,1699562340
339,daru,-9.0763,143.2092,78.42,69,85,10.13,PG,1699562342
340,sile,41.1754,29.6133,61.57,58,23,5.99,TR,1699562102
341,ar ruways,24.1103,52.7306,81.07,66,0,7.52,AE,1699562347
342,chom bueng,13.62,99.5917,74.86,93,39,2.77,TH,1699562348
343,recreo,-29.2818,-65.061,83.88,35,7,22.1,AR,1699562350
344,anadyr,64.75,177.4833,16.3,86,0,6.71,RU,1699562352
345,kachug,53.9606,105.8817,4.05,98,53,1.01,RU,1699562353
346,ouesso,1.6136,16.0517,72.05,99,100,2.06,CG,1699562355
347,alliance,40.9153,-81.1059,55.67,64,76,9.44,US,1699562165
348,chornobay,49.6708,32.3239,43.05,79,8,6.11,UA,1699562358
349,mil'kovo,55.6078,37.7956,41.99,87,88,6.22,RU,1699562360
350,leitchfield,37.48,-86.2939,64.26,60,98,1.99,US,1699562361
351,colonia,50.9333,6.95,47.86,87,20,9.22,DE,1699562362
352,arteche,12.2645,125.4048,79.21,87,23,4.54,PH,1699562364
353,ulladulla,-35.35,150.4667,64.44,82,3,0.83,AU,1699562365
354,evora,38.5667,-7.9,53.33,92,95,5.28,PT,1699562264
355,trebon,49.0036,14.7707,39.49,87,100,3.89,CZ,1699562369
356,ghormach,35.7306,63.7826,51.35,53,46,6.44,AF,1699562371
357,luganville,-15.5333,167.1667,77.74,84,100,13.29,VU,1699562373
358,asau,46.4333,26.4,36.52,75,1,4.5,RO,1699562374
359,mata-utu,-13.2816,-176.1745,81.55,85,98,14.03,WF,1699562376
360,rupert,42.6191,-113.6772,45.18,45,0,0.0,US,1699562378
361,patterson,37.4716,-121.1297,66.11,38,100,5.86,US,1699562379
362,harstad,68.799,16.5293,33.15,86,62,10.0,NO,1699562381
363,sarmiento,-45.5882,-69.07,68.25,20,0,15.43,AR,1699562382
364,szentlorinc,46.0402,17.9872,50.88,71,98,5.77,HU,1699562384
365,malango,-2.9627,119.9001,64.4,92,86,2.75,ID,1699562386
366,puerto deseado,-47.7503,-65.8938,61.66,34,25,17.96,AR,1699562388
367,bandar lampung,-5.4254,105.258,74.64,92,94,6.33,ID,1699562389
368,kerikeri,-35.2268,173.9474,63.12,55,67,4.21,NZ,1699562391
369,katima mulilo,-17.5,24.2667,81.72,42,43,5.41,NA,1699562392
370,constitucion,-35.3333,-72.4167,59.45,70,40,10.51,CL,1699562394
371,morant bay,17.8815,-76.4093,87.71,75,18,13.69,JM,1699562395
372,taguatinga,-12.3857,-46.5711,88.75,36,51,8.95,BR,1699562397
373,kill devil hills,36.0307,-75.676,75.22,58,0,12.66,US,1699562399
374,acajutla,13.5928,-89.8275,85.24,72,97,5.48,SV,1699562401
375,fortuna,40.5982,-124.1573,56.66,79,100,1.99,US,1699562403
376,port moresby,-9.4431,147.1797,75.27,78,90,6.6,PG,1699562405
377,rongelap,11.1635,166.8941,82.17,79,67,22.17,MH,1699562407
378,kamiiso,41.8167,140.65,60.4,85,100,12.84,JP,1699562409
379,tidjikja,18.5564,-11.4271,75.94,18,0,11.52,MR,1699562410
380,valley city,46.9233,-98.0032,34.32,100,100,20.71,US,1699562413
381,carnarvon,-24.8667,113.6333,68.65,73,97,22.97,AU,1699562414
382,jabat,7.75,168.9751,81.57,81,100,16.35,MH,1699562416
383,bannewitz,50.9929,13.7171,50.9,87,20,9.22,DE,1699562418
384,xilin hot,43.9667,116.0333,2.66,89,10,6.24,CN,1699562421
385,nadym,65.5333,72.5167,25.5,90,100,12.46,RU,1699562422
386,newport,51.5877,-2.9984,47.82,88,50,18.88,GB,1699562325
387,louisville,38.2542,-85.7594,65.35,41,0,9.22,US,1699562380
388,cidreira,-30.1811,-50.2056,64.78,84,100,2.68,BR,1699562428
389,pyt-yakh,60.7499,72.8582,29.66,87,100,7.9,RU,1699562429
390,chulakkurgan,43.765,69.1814,43.79,75,4,8.57,KZ,1699562433
391,bonito,-21.1211,-56.4819,84.76,55,100,2.13,BR,1699562435
392,isangel,-19.55,169.2667,74.03,69,83,16.02,VU,1699562437
393,fernley,39.608,-119.2518,55.27,27,33,3.0,US,1699562438
394,sioux center,43.0797,-96.1756,52.59,42,11,8.01,US,1699562342
395,harper,4.375,-7.7169,78.17,88,99,7.94,LR,1699562441
396,hadibu,12.65,54.0333,79.09,80,19,8.95,YE,1699562443
397,barquisimeto,10.0739,-69.3228,82.13,64,38,11.45,VE,1699562445
398,caiaponia,-16.9567,-51.8103,87.37,38,79,5.68,BR,1699562447
399,awka,6.2101,7.0741,77.74,84,99,6.08,NG,1699562449
400,glendive,47.1053,-104.7125,36.18,75,100,13.8,US,1699562450
401,kuanda,56.3161,116.0806,-1.03,94,72,0.65,RU,1699562453
402,playa vicente,17.8333,-95.8167,84.04,76,85,3.0,MX,1699562455
403,corinto,37.9407,22.9573,61.9,69,100,2.98,GR,1699562457
404,mbala,-8.8402,31.3659,70.29,59,99,1.23,ZM,1699562458
405,narimanov,46.6927,47.8498,55.31,78,100,15.37,RU,1699562460
406,mount gambier,-37.8333,140.7667,55.98,76,72,3.98,AU,1699562462
407,cockburn town,21.4612,-71.1419,85.96,66,40,16.11,TC,1699562429
408,zhoukou,33.6333,114.6333,46.94,35,100,14.18,CN,1699562467
409,kauhava,63.103,23.0713,33.08,97,100,3.69,FI,1699562469
410,hobyo,5.3505,48.5268,79.56,84,100,15.7,SO,1699562471
411,la sarre,48.8002,-79.1996,30.81,98,100,7.76,CA,1699562397
412,buala,-8.145,159.5921,80.62,87,99,10.2,SB,1699562474
413,seven pagodas,12.6264,80.1722,82.06,81,100,12.33,IN,1699562476
414,mairinque,-23.5458,-47.1833,87.04,58,62,3.27,BR,1699562238
415,philadelphia,39.9523,-75.1638,69.15,68,75,6.91,US,1699561807
416,benjamin aceval,-24.9667,-57.5667,84.6,69,99,12.8,PY,1699562481
417,kareli,22.9167,79.0667,68.86,49,7,3.11,IN,1699562483
418,leh,34.1667,77.5833,32.0,67,73,3.85,IN,1699562484
419,san pedro pochutla,15.7333,-96.4667,91.11,62,65,7.65,MX,1699562486
420,bandon,51.7469,-8.7425,45.99,76,54,17.94,IE,1699562488
421,santana,-0.0583,-51.1817,91.58,58,40,13.8,BR,1699562420
422,gadzhiyevo,69.2551,33.3362,21.74,91,93,13.4,RU,1699562491
423,veraval,20.9,70.3667,80.38,72,0,8.9,IN,1699562493
424,tshikapa,-6.4167,20.8,71.2,98,100,1.66,CD,1699562495
425,mayya,61.7333,130.2811,-2.88,100,100,1.34,RU,1699562496
426,nuku'alofa,-21.1333,-175.2,71.94,100,100,13.8,TO,1699562346
427,urangan,-25.3,152.9,71.56,71,17,8.16,AU,1699562403
428,arawa,-6.2132,155.5367,77.54,94,100,3.94,PG,1699562502
429,barabai,-2.5833,115.3833,74.82,94,100,1.68,ID,1699562504
430,colusa,39.2143,-122.0094,64.81,26,100,0.51,US,1699562344
431,vinzili,56.9594,65.7708,33.96,92,100,5.53,RU,1699562507
432,vicuna,-30.0319,-70.7081,86.77,34,100,8.41,CL,1699562509
433,ansalta,42.6894,46.1178,44.78,83,68,6.42,RU,1699562511
434,afaahiti,-17.75,-149.2833,84.07,86,64,13.29,PF,1699562513
435,vuktyl,63.8567,57.3094,30.11,96,99,10.0,RU,1699562515
436,xifeng,42.7372,124.7222,0.21,99,67,5.5,CN,1699562517
437,aldan,58.6031,125.3894,-3.64,97,100,3.11,RU,1699562519
438,kone,-21.0595,164.8658,74.37,54,100,5.46,NC,1699562520
439,dampit,-8.2116,112.7493,69.19,91,100,1.9,ID,1699562522
440,makinsk,52.6292,70.4169,35.62,98,100,10.51,KZ,1699562524
441,kenora,49.8167,-94.4337,32.97,100,100,9.22,CA,1699562527
442,aur,8.1499,171.1687,78.37,93,100,13.94,MH,1699562529
443,pingzhuang,42.0372,119.2889,18.1,60,0,10.33,CN,1699562531
444,sitka,57.0531,-135.33,48.09,76,75,12.66,US,1699562324
445,francistown,-21.17,27.5079,76.39,38,3,15.03,BW,1699562535
446,albunol,36.792,-3.205,62.33,55,99,2.93,ES,1699562536
447,tambopata,-12.7333,-69.1833,89.49,55,20,4.61,PE,1699562538
448,mbekenyera,-10.0,38.9833,76.01,81,74,7.4,TZ,1699562540
449,eyl,7.9803,49.8164,79.57,76,100,14.41,SO,1699562542
450,barth,54.3635,12.7249,48.06,91,100,16.96,DE,1699562544
451,al ghayzah,16.2079,52.176,79.9,60,3,4.07,YE,1699562547
452,kavalerovo,44.2661,135.0572,25.39,88,52,11.01,RU,1699562549
453,minas novas,-17.2186,-42.5903,79.12,27,1,2.21,BR,1699562552
454,spring creek,40.7266,-115.5859,44.82,24,0,1.21,US,1699562554
455,ibotirama,-12.1853,-43.2206,85.78,37,75,4.21,BR,1699562378
456,lebu,-37.6167,-73.65,54.91,71,23,14.81,CL,1699562560
457,portland,45.5234,-122.6762,53.64,83,75,13.8,US,1699562493
458,nemuro,43.3236,145.575,55.22,88,69,30.2,JP,1699562564
459,kigoma,-4.8769,29.6267,76.89,76,100,1.72,TZ,1699562567
460,taoudenni,22.6783,-3.9836,75.65,13,0,10.47,ML,1699562568
461,notodden,59.5594,9.2585,33.71,92,100,5.17,NO,1699562570
462,chizhou,30.6578,117.4831,57.54,90,100,14.58,CN,1699562357
463,berezovyy,51.6667,135.7,14.43,91,88,4.0,RU,1699562573
464,luwuk,-0.9516,122.7875,76.93,86,74,3.24,ID,1699562574
465,inirida,3.8653,-67.9239,85.5,77,92,1.1,CO,1699562576
466,paracuru,-3.41,-39.0306,83.1,74,99,15.19,BR,1699562578
467,emerald,-23.5333,148.1667,65.34,73,51,11.41,AU,1699562321
468,gaalkacyo,6.7697,47.4308,76.73,76,92,15.3,SO,1699562582
469,sao francisco,-15.9486,-44.8644,84.74,27,0,3.0,BR,1699562585
470,bata,1.8639,9.7658,77.67,89,100,4.76,GQ,1699562588
471,pacific grove,36.6177,-121.9166,71.38,55,0,8.99,US,1699562591
472,jieshou,33.2634,115.3611,49.93,46,100,13.76,CN,1699562594
473,gbarnga,6.9956,-9.4722,73.51,98,98,2.91,LR,1699562597
474,praya,14.9215,-23.5087,77.54,65,20,10.36,CV,1699562601
475,yuzhnyy,53.2542,83.6936,27.16,91,0,6.71,RU,1699562606
476,khao wong,16.7001,104.0902,75.34,85,23,2.8,TH,1699562608
477,kuqa,41.7278,82.9364,46.69,34,61,4.81,CN,1699562610
478,ebon,4.582,168.6964,82.9,79,100,7.47,MH,1699562612
479,keflavik,64.0049,-22.5624,37.83,60,0,4.61,IS,1699562492
480,nelson bay,-32.7167,152.15,64.99,97,90,5.01,AU,1699562615
481,al burayqah,30.4062,19.5739,72.97,69,100,7.25,LY,1699562617
482,ismayilli,40.779,48.1638,39.92,39,94,4.56,AZ,1699562618
483,prince albert,53.2001,-105.7677,31.95,80,100,8.05,CA,1699562338
484,tortoli,39.9256,9.6572,57.02,88,75,13.8,IT,1699562622
485,olutanga,7.3106,122.8464,82.51,73,37,1.81,PH,1699562624
486,bamboo flat,11.7,92.7167,78.89,94,40,2.3,IN,1699562626
487,whitecourt,54.1502,-115.6855,38.44,60,75,4.61,CA,1699562630
488,gaigeturi,33.4644,126.3183,59.05,72,100,10.36,KR,1699562633
489,twon-brass,4.3151,6.2418,81.03,81,100,11.21,NG,1699562635
490,smithers,54.7804,-127.1743,43.12,81,100,9.22,CA,1699562637
491,tyniste nad orlici,50.1514,16.0777,46.09,91,100,6.4,CZ,1699562639
492,conception bay south,47.4999,-52.9981,38.73,95,100,25.77,CA,1699562642
493,piti village,13.4626,144.6933,83.28,83,20,12.66,GU,1699562645
494,uvinza,-5.1036,30.3911,70.86,84,100,3.49,TZ,1699562650
495,sisimiut,66.9395,-53.6735,25.18,79,100,12.3,GL,1699562652
496,alaghsas,17.0187,8.0168,81.27,12,100,9.66,NE,1699562655
497,aketi,2.7388,23.7833,71.94,99,100,3.0,CD,1699562658
498,nort-sur-erdre,47.4333,-1.5,50.18,96,99,14.2,FR,1699562511
499,natal,-5.795,-35.2094,83.05,69,40,17.27,BR,1699562467
500,ulanhot,46.0833,122.0833,11.82,53,14,11.9,CN,1699562539
501,horana south,6.7159,80.0626,74.23,96,100,0.72,LK,1699562670
502,worland,44.0169,-107.9554,47.55,37,0,0.0,US,1699562672
503,pisco,-13.7,-76.2167,69.85,78,75,11.5,PE,1699562675
504,mitu,1.1983,-70.1733,80.74,89,93,2.71,CO,1699562678
505,saudarkrokur,65.7461,-19.6394,27.01,82,93,7.85,IS,1699562681
506,port lincoln,-34.7333,135.8667,66.33,69,23,7.78,AU,1699562684
507,kabo,7.6994,18.629,75.13,83,100,5.35,CF,1699562686
508,north liberty,41.7492,-91.598,58.86,30,0,23.02,US,1699562399
509,olyokminsk,60.3736,120.4264,-6.05,98,30,4.5,RU,1699562692
510,kenda,23.2,86.5333,67.35,53,0,2.86,IN,1699562694
511,yaren,-0.5472,166.916,84.15,80,99,16.82,NR,1699562696
512,cooper's town,26.8667,-77.5167,78.39,74,5,9.53,BS,1699562698
513,gaiman,-43.2897,-65.4929,74.77,13,3,8.59,AR,1699562700
514,waingapu,-9.6567,120.2641,79.03,81,100,1.12,ID,1699562702
515,tolanaro,-25.0319,46.9987,73.47,88,75,4.61,MG,1699562704
516,puerto lempira,15.2667,-83.7667,82.54,78,75,9.22,HN,1699562706
517,sauri,11.7266,6.7837,78.44,22,68,5.77,NG,1699562709
518,le grau-du-roi,43.5388,4.1356,55.38,74,20,10.36,FR,1699562711
519,lipany,49.1538,20.9638,46.06,90,98,6.33,SK,1699562713
520,akkol',48.7833,53.2,52.88,56,100,22.86,KZ,1699562717
521,berdigestyakh,62.0989,126.6992,-14.82,100,82,3.06,RU,1699562720
522,isla vista,34.4133,-119.861,80.01,21,0,4.61,US,1699562551
523,broome,42.2506,-75.833,52.32,82,20,12.66,US,1699562724
524,cidade velha,14.9167,-23.6167,77.47,65,20,10.36,CV,1699562726
525,greenville,35.6127,-77.3663,82.56,50,0,6.91,US,1699562728
526,puerto santa,-8.9906,-78.6456,68.79,78,30,9.93,PE,1699562730
527,talakan,50.3167,130.3667,5.59,100,82,2.89,RU,1699562732
528,la'ie,21.6477,-157.9253,84.16,71,55,8.99,US,1699562734
529,lodja,-3.4833,23.4333,68.52,99,100,0.81,CD,1699562736
530,cartagena,10.3997,-75.5144,92.82,59,40,5.75,CO,1699562495
531,sabzevar,36.2126,57.6819,53.47,53,4,1.36,IR,1699562740
532,walvis bay,-22.9575,14.5053,61.09,88,66,4.61,NA,1699562742
533,darovskoy,58.77,47.9564,38.12,95,100,3.51,RU,1699562743
534,kotel'nikovo,47.6317,43.1461,48.02,73,95,17.74,RU,1699562745
535,kerema,-7.9631,145.7785,76.23,88,86,4.97,PG,1699562748
536,vennesla,58.2694,7.9741,39.27,92,40,13.8,NO,1699562750
537,bom jesus,-9.0744,-44.3586,87.98,38,77,6.93,BR,1699562752
538,shimoda,34.6667,138.95,66.85,76,98,2.77,JP,1699562754
539,cururupu,-1.8283,-44.8683,79.61,81,64,5.06,BR,1699562577
540,sorong,-0.8833,131.25,78.15,87,71,6.69,ID,1699562758
541,inhambane,-23.865,35.3833,72.84,67,76,11.72,MZ,1699562760
542,barra de santo antonio,-9.4047,-35.5072,81.68,74,0,7.02,BR,1699562762
543,mogocha,53.7333,119.7667,5.27,68,18,4.72,RU,1699562764
544,alice springs,-23.7,133.8833,74.75,50,84,8.05,AU,1699562556
545,grootfontein,-19.5667,18.1167,78.37,44,93,2.3,NA,1699562770
546,vila velha,-20.3297,-40.2925,80.55,68,0,19.57,BR,1699562773
547,ballito,-29.539,31.2144,64.54,88,75,2.3,ZA,1699562775
548,lobujya,27.95,86.8167,14.02,58,0,2.86,NP,1699562778
549,kavieng,-2.5744,150.7967,82.31,77,100,10.54,PG,1699562780
550,swakopmund,-22.6833,14.5333,60.98,81,67,1.99,NA,1699562781
551,ha'il,27.5219,41.6907,68.02,42,0,4.61,SA,1699562783
552,salinopolis,-0.6136,-47.3561,81.68,77,86,13.58,BR,1699562786
553,as sulaymaniyah,35.5611,45.4375,54.03,62,0,3.44,IQ,1699562788
554,ust'-ilimsk,58.0006,102.6619,2.44,96,16,1.01,RU,1699562791
555,mao,39.8885,4.2658,54.16,94,20,6.91,ES,1699562793
556,aibak,36.2647,68.0155,48.47,72,0,3.71,AF,1699562795
557,ponta delgada,37.7333,-25.6667,68.72,88,40,14.97,PT,1699562796
558,laguna,38.421,-121.4238,68.54,42,0,6.91,US,1699562799
559,valenca do piaui,-6.4075,-41.7456,89.89,28,42,5.7,BR,1699562802
560,clarence town,-32.5833,151.7833,65.14,89,51,3.4,AU,1699562804
561,antalaha,-14.9003,50.2788,76.19,89,60,3.94,MG,1699562807
562,norrtalje,59.758,18.705,46.08,96,100,9.89,SE,1699562810
